[
  {
    "id": "BLD-001",
    "name": "Residence Victor Hugo",
    "city": "Paris",
    "address": "45 Avenue Victor Hugo, 75116 Paris",
    "usage": "residential",
    "dpe": "D",
    "lat": 48.8721,
    "lng": 2.2874,
    "surface": 4200,
    "floors": 7,
    "constructionYear": 1925
  },
  {
    "id": "BLD-002",
    "name": "Tour Horizon",
    "city": "La Defense",
    "address": "12 Parvis de la Defense, 92800 Puteaux",
    "usage": "office",
    "dpe": "B",
    "lat": 48.8911,
    "lng": 2.2375,
    "surface": 45000,
    "floors": 32,
    "constructionYear": 2018
  },
  {
    "id": "BLD-003",
    "name": "Les Jardins de Courbevoie",
    "city": "Courbevoie",
    "address": "8 Rue de l'Alma, 92400 Courbevoie",
    "usage": "residential",
    "dpe": "C",
    "lat": 48.9003,
    "lng": 2.2568,
    "surface": 8500,
    "floors": 12,
    "constructionYear": 2005
  },
  {
    "id": "BLD-004",
    "name": "Centre Medical Saint-Jacques",
    "city": "Paris",
    "address": "2 Rue Saint-Jacques, 75005 Paris",
    "usage": "healthcare",
    "dpe": "F",
    "lat": 48.848,
    "lng": 2.3471,
    "surface": 3200,
    "floors": 4,
    "constructionYear": 1890
  },
  {
    "id": "BLD-005",
    "name": "Immeuble Lafayette",
    "city": "Paris",
    "address": "87 Rue La Fayette, 75009 Paris",
    "usage": "office",
    "dpe": "D",
    "lat": 48.8755,
    "lng": 2.3378,
    "surface": 6800,
    "floors": 8,
    "constructionYear": 1962
  },
  {
    "id": "BLD-006",
    "name": "Galerie Belleville",
    "city": "Paris",
    "address": "14 Rue de Belleville, 75020 Paris",
    "usage": "retail",
    "dpe": "E",
    "lat": 48.8732,
    "lng": 2.3824,
    "surface": 2100,
    "floors": 2,
    "constructionYear": 1978
  },
  {
    "id": "BLD-007",
    "name": "Ecole Jean Moulin",
    "city": "Montreuil",
    "address": "3 Rue Jean Moulin, 93100 Montreuil",
    "usage": "school",
    "dpe": "C",
    "lat": 48.8607,
    "lng": 2.4423,
    "surface": 4500,
    "floors": 3,
    "constructionYear": 1995
  },
  {
    "id": "BLD-008",
    "name": "Hotel Saint-Germain",
    "city": "Paris",
    "address": "25 Rue du Bac, 75007 Paris",
    "usage": "hotel",
    "dpe": "F",
    "lat": 48.8555,
    "lng": 2.324,
    "surface": 5600,
    "floors": 6,
    "constructionYear": 1880
  },
  {
    "id": "BLD-009",
    "name": "Residence des Lilas",
    "city": "Les Lilas",
    "address": "11 Avenue Pasteur, 93260 Les Lilas",
    "usage": "residential",
    "dpe": "E",
    "lat": 48.8792,
    "lng": 2.4205,
    "surface": 6200,
    "floors": 9,
    "constructionYear": 1972
  },
  {
    "id": "BLD-010",
    "name": "Bureaux Republique",
    "city": "Paris",
    "address": "4 Place de la Republique, 75010 Paris",
    "usage": "office",
    "dpe": "D",
    "lat": 48.8674,
    "lng": 2.363,
    "surface": 7200,
    "floors": 7,
    "constructionYear": 1985
  },
  {
    "id": "BLD-011",
    "name": "Centre Commercial Val-de-Seine",
    "city": "Issy-les-Moulineaux",
    "address": "18 Quai de Stalingrad, 92130 Issy-les-Moulineaux",
    "usage": "retail",
    "dpe": "E",
    "lat": 48.8278,
    "lng": 2.2629,
    "surface": 25000,
    "floors": 3,
    "constructionYear": 1998
  },
  {
    "id": "BLD-012",
    "name": "Residence du Parc",
    "city": "Boulogne-Billancourt",
    "address": "9 Rue du Vieux Pont de Sevres, 92100 Boulogne-Billancourt",
    "usage": "residential",
    "dpe": "C",
    "lat": 48.8297,
    "lng": 2.2365,
    "surface": 9800,
    "floors": 14,
    "constructionYear": 2010
  },
  {
    "id": "BLD-013",
    "name": "Campus Sciences Ouest",
    "city": "Nanterre",
    "address": "21 Boulevard des Provinces Francaises, 92000 Nanterre",
    "usage": "university",
    "dpe": "D",
    "lat": 48.8984,
    "lng": 2.2151,
    "surface": 32000,
    "floors": 5,
    "constructionYear": 1968
  },
  {
    "id": "BLD-014",
    "name": "Clinique des Ternes",
    "city": "Paris",
    "address": "30 Avenue des Ternes, 75017 Paris",
    "usage": "healthcare",
    "dpe": "F",
    "lat": 48.8791,
    "lng": 2.2935,
    "surface": 8900,
    "floors": 6,
    "constructionYear": 1935
  },
  {
    "id": "BLD-015",
    "name": "Hotel de la Gare",
    "city": "Saint-Denis",
    "address": "5 Rue de la Republique, 93200 Saint-Denis",
    "usage": "hotel",
    "dpe": "G",
    "lat": 48.9361,
    "lng": 2.3569,
    "surface": 3800,
    "floors": 5,
    "constructionYear": 1952
  },
  {
    "id": "BLD-016",
    "name": "Residence Les Quais",
    "city": "Ivry-sur-Seine",
    "address": "2 Quai Henri Pourchasse, 94200 Ivry-sur-Seine",
    "usage": "residential",
    "dpe": "D",
    "lat": 48.8204,
    "lng": 2.3875,
    "surface": 11200,
    "floors": 16,
    "constructionYear": 2015
  },
  {
    "id": "BLD-017",
    "name": "Maison des Associations",
    "city": "Pantin",
    "address": "7 Rue Hoche, 93500 Pantin",
    "usage": "public",
    "dpe": "E",
    "lat": 48.8941,
    "lng": 2.4049,
    "surface": 2800,
    "floors": 3,
    "constructionYear": 1982
  },
  {
    "id": "BLD-018",
    "name": "Tour Valmy",
    "city": "La Defense",
    "address": "1 Esplanade Charles de Gaulle, 92800 Puteaux",
    "usage": "office",
    "dpe": "A",
    "lat": 48.8918,
    "lng": 2.2406,
    "surface": 52000,
    "floors": 38,
    "constructionYear": 2022
  },
  {
    "id": "BLD-019",
    "name": "Creche du Canal",
    "city": "Paris",
    "address": "10 Quai de Jemmapes, 75010 Paris",
    "usage": "childcare",
    "dpe": "B",
    "lat": 48.8726,
    "lng": 2.3644,
    "surface": 1200,
    "floors": 2,
    "constructionYear": 2019
  },
  {
    "id": "BLD-020",
    "name": "Ateliers du Marais",
    "city": "Paris",
    "address": "28 Rue Charlot, 75003 Paris",
    "usage": "public",
    "dpe": "E",
    "lat": 48.8627,
    "lng": 2.3649,
    "surface": 1800,
    "floors": 2,
    "constructionYear": 1965
  },
  {
    "id": "BLD-021",
    "name": "Pole Tertiaire Seine Ouest",
    "city": "Suresnes",
    "address": "15 Quai Gallieni, 92150 Suresnes",
    "usage": "office",
    "dpe": "C",
    "lat": 48.8669,
    "lng": 2.2267,
    "surface": 18000,
    "floors": 10,
    "constructionYear": 2008
  },
  {
    "id": "BLD-022",
    "name": "Residence des Buttes",
    "city": "Paris",
    "address": "6 Rue Fessart, 75019 Paris",
    "usage": "residential",
    "dpe": "E",
    "lat": 48.8801,
    "lng": 2.3838,
    "surface": 5400,
    "floors": 8,
    "constructionYear": 1970
  },
  {
    "id": "BLD-023",
    "name": "Centre Sportif du Canal",
    "city": "Aubervilliers",
    "address": "9 Rue de la Commune de Paris, 93300 Aubervilliers",
    "usage": "sports",
    "dpe": "F",
    "lat": 48.9135,
    "lng": 2.3822,
    "surface": 6500,
    "floors": 2,
    "constructionYear": 1988
  },
  {
    "id": "BLD-024",
    "name": "Mediatheque des Arts",
    "city": "Clichy",
    "address": "3 Rue Martre, 92110 Clichy",
    "usage": "public",
    "dpe": "B",
    "lat": 48.9032,
    "lng": 2.3065,
    "surface": 4200,
    "floors": 4,
    "constructionYear": 2016
  },
  {
    "id": "BLD-025",
    "name": "Immeuble Haussmann Opera",
    "city": "Paris",
    "address": "20 Boulevard Haussmann, 75009 Paris",
    "usage": "office",
    "dpe": "D",
    "lat": 48.872,
    "lng": 2.3359,
    "surface": 9500,
    "floors": 7,
    "constructionYear": 1875
  },
  {
    "id": "BLD-026",
    "name": "Gymnase Marcel Cerdan",
    "city": "Levallois-Perret",
    "address": "42 Rue Rivay, 92300 Levallois-Perret",
    "usage": "sports",
    "dpe": "D",
    "lat": 48.8956,
    "lng": 2.2891,
    "surface": 3800,
    "floors": 2,
    "constructionYear": 1992
  },
  {
    "id": "BLD-027",
    "name": "Residence Gambetta",
    "city": "Paris",
    "address": "112 Avenue Gambetta, 75020 Paris",
    "usage": "residential",
    "dpe": "C",
    "lat": 48.8683,
    "lng": 2.3986,
    "surface": 7800,
    "floors": 11,
    "constructionYear": 2012
  },
  {
    "id": "BLD-028",
    "name": "Data Center Paris Nord",
    "city": "Saint-Denis",
    "address": "28 Rue du Landy, 93200 Saint-Denis",
    "usage": "industrial",
    "dpe": "A",
    "lat": 48.9178,
    "lng": 2.3512,
    "surface": 15000,
    "floors": 3,
    "constructionYear": 2021
  },
  {
    "id": "BLD-029",
    "name": "Entrepot Logistique Rungis",
    "city": "Rungis",
    "address": "1 Rue de la Tour, 94150 Rungis",
    "usage": "industrial",
    "dpe": "E",
    "lat": 48.7521,
    "lng": 2.3489,
    "surface": 42000,
    "floors": 1,
    "constructionYear": 1985
  },
  {
    "id": "BLD-030",
    "name": "Tour First",
    "city": "La Defense",
    "address": "1-2 Place des Saisons, 92400 Courbevoie",
    "usage": "office",
    "dpe": "B",
    "lat": 48.8897,
    "lng": 2.2456,
    "surface": 87000,
    "floors": 50,
    "constructionYear": 2011
  },
  {
    "id": "BLD-031",
    "name": "Hopital Europeen",
    "city": "Paris",
    "address": "8 Rue de la Roquette, 75011 Paris",
    "usage": "healthcare",
    "dpe": "C",
    "lat": 48.8538,
    "lng": 2.3725,
    "surface": 28000,
    "floors": 8,
    "constructionYear": 2017
  },
  {
    "id": "BLD-032",
    "name": "Lycee International",
    "city": "Saint-Germain-en-Laye",
    "address": "2 Rue du Fer a Cheval, 78100 Saint-Germain-en-Laye",
    "usage": "school",
    "dpe": "D",
    "lat": 48.8989,
    "lng": 2.0934,
    "surface": 18500,
    "floors": 4,
    "constructionYear": 1965
  },
  {
    "id": "BLD-033",
    "name": "Centre Commercial Velizy 2",
    "city": "Velizy-Villacoublay",
    "address": "2 Avenue de l'Europe, 78140 Velizy-Villacoublay",
    "usage": "retail",
    "dpe": "D",
    "lat": 48.7812,
    "lng": 2.1923,
    "surface": 75000,
    "floors": 2,
    "constructionYear": 1972
  },
  {
    "id": "BLD-034",
    "name": "Residence Seine Musicale",
    "city": "Boulogne-Billancourt",
    "address": "15 Ile Seguin, 92100 Boulogne-Billancourt",
    "usage": "residential",
    "dpe": "A",
    "lat": 48.8256,
    "lng": 2.2298,
    "surface": 12500,
    "floors": 18,
    "constructionYear": 2023
  },
  {
    "id": "BLD-035",
    "name": "Usine Renault Heritage",
    "city": "Boulogne-Billancourt",
    "address": "27 Rue des Tilleuls, 92100 Boulogne-Billancourt",
    "usage": "industrial",
    "dpe": "G",
    "lat": 48.8312,
    "lng": 2.2412,
    "surface": 35000,
    "floors": 2,
    "constructionYear": 1932
  },
  {
    "id": "BLD-036",
    "name": "Creche Les Petits Pas",
    "city": "Vincennes",
    "address": "5 Avenue de Paris, 94300 Vincennes",
    "usage": "childcare",
    "dpe": "C",
    "lat": 48.8478,
    "lng": 2.4356,
    "surface": 950,
    "floors": 2,
    "constructionYear": 2014
  },
  {
    "id": "BLD-037",
    "name": "Hotel Marriott Rive Gauche",
    "city": "Paris",
    "address": "17 Boulevard Saint-Jacques, 75014 Paris",
    "usage": "hotel",
    "dpe": "C",
    "lat": 48.8334,
    "lng": 2.3378,
    "surface": 14200,
    "floors": 12,
    "constructionYear": 2009
  },
  {
    "id": "BLD-038",
    "name": "Universite Paris-Saclay - Batiment A",
    "city": "Orsay",
    "address": "3 Rue Joliot-Curie, 91190 Orsay",
    "usage": "university",
    "dpe": "E",
    "lat": 48.6989,
    "lng": 2.1745,
    "surface": 22000,
    "floors": 6,
    "constructionYear": 1971
  },
  {
    "id": "BLD-039",
    "name": "Piscine Olympique Aquaboulevard",
    "city": "Paris",
    "address": "4 Rue Louis Armand, 75015 Paris",
    "usage": "sports",
    "dpe": "D",
    "lat": 48.8312,
    "lng": 2.2789,
    "surface": 18000,
    "floors": 2,
    "constructionYear": 1989
  },
  {
    "id": "BLD-040",
    "name": "Tour Montparnasse",
    "city": "Paris",
    "address": "33 Avenue du Maine, 75015 Paris",
    "usage": "office",
    "dpe": "F",
    "lat": 48.8421,
    "lng": 2.3219,
    "surface": 90000,
    "floors": 59,
    "constructionYear": 1973
  },
  {
    "id": "BLD-041",
    "name": "Residence Parc de Bercy",
    "city": "Paris",
    "address": "18 Rue Paul Belmondo, 75012 Paris",
    "usage": "residential",
    "dpe": "B",
    "lat": 48.8367,
    "lng": 2.3856,
    "surface": 6800,
    "floors": 9,
    "constructionYear": 2020
  },
  {
    "id": "BLD-042",
    "name": "Mairie de Montreuil",
    "city": "Montreuil",
    "address": "1 Place Jean Jaures, 93100 Montreuil",
    "usage": "public",
    "dpe": "E",
    "lat": 48.8623,
    "lng": 2.4412,
    "surface": 8500,
    "floors": 5,
    "constructionYear": 1935
  },
  {
    "id": "BLD-043",
    "name": "Campus Station F",
    "city": "Paris",
    "address": "5 Parvis Alan Turing, 75013 Paris",
    "usage": "office",
    "dpe": "B",
    "lat": 48.8345,
    "lng": 2.3712,
    "surface": 34000,
    "floors": 3,
    "constructionYear": 2017
  },
  {
    "id": "BLD-044",
    "name": "Galeries Lafayette Haussmann",
    "city": "Paris",
    "address": "40 Boulevard Haussmann, 75009 Paris",
    "usage": "retail",
    "dpe": "E",
    "lat": 48.8738,
    "lng": 2.3312,
    "surface": 70000,
    "floors": 7,
    "constructionYear": 1912
  },
  {
    "id": "BLD-045",
    "name": "Ecole Maternelle Jules Ferry",
    "city": "Asnieres-sur-Seine",
    "address": "12 Rue des Bourguignons, 92600 Asnieres-sur-Seine",
    "usage": "school",
    "dpe": "D",
    "lat": 48.9145,
    "lng": 2.2856,
    "surface": 2200,
    "floors": 2,
    "constructionYear": 1958
  },
  {
    "id": "BLD-046",
    "name": "Residence Terrasses de Neuilly",
    "city": "Neuilly-sur-Seine",
    "address": "8 Boulevard du Chateau, 92200 Neuilly-sur-Seine",
    "usage": "residential",
    "dpe": "B",
    "lat": 48.8834,
    "lng": 2.2678,
    "surface": 15600,
    "floors": 12,
    "constructionYear": 2019
  },
  {
    "id": "BLD-047",
    "name": "Centre de Recherche CNRS",
    "city": "Gif-sur-Yvette",
    "address": "1 Avenue de la Terrasse, 91190 Gif-sur-Yvette",
    "usage": "university",
    "dpe": "D",
    "lat": 48.7056,
    "lng": 2.1312,
    "surface": 28000,
    "floors": 4,
    "constructionYear": 1975
  },
  {
    "id": "BLD-048",
    "name": "Hotel Ibis Gare du Nord",
    "city": "Paris",
    "address": "31 Rue de Saint-Quentin, 75010 Paris",
    "usage": "hotel",
    "dpe": "D",
    "lat": 48.8812,
    "lng": 2.3567,
    "surface": 4800,
    "floors": 7,
    "constructionYear": 1995
  },
  {
    "id": "BLD-049",
    "name": "Pharmacie Centrale des Hopitaux",
    "city": "Nanterre",
    "address": "7 Rue du Debarcadere, 92000 Nanterre",
    "usage": "healthcare",
    "dpe": "C",
    "lat": 48.8912,
    "lng": 2.2034,
    "surface": 12000,
    "floors": 3,
    "constructionYear": 2006
  },
  {
    "id": "BLD-050",
    "name": "Stade Charlety",
    "city": "Paris",
    "address": "99 Boulevard Kellermann, 75013 Paris",
    "usage": "sports",
    "dpe": "D",
    "lat": 48.8189,
    "lng": 2.3478,
    "surface": 45000,
    "floors": 4,
    "constructionYear": 1994
  }
]
